{
  "updatedAt": "2026-06-21T03:19:26.882Z",
  "totalMembers": 72,
  "locatedMembers": 44,
  "filledCityRecords": 48,
  "provinceOnlyMembers": 4,
  "unrecordedMembers": 21,
  "excludedDualCityMembers": 3,
  "placeRows": [
    {
      "label": "武汉",
      "note": "武汉市",
      "lng": 114.3055,
      "lat": 30.5928,
      "chinaNames": [
        "武汉市"
      ],
      "count": 5,
      "students": [
        {
          "name": "王境",
          "registeredName": "王境",
          "wechatName": "狸猫🦝"
        },
        {
          "name": "李国正",
          "registeredName": "李国正",
          "wechatName": "七度旅人"
        },
        {
          "name": "李谨西",
          "registeredName": "李谨西",
          "wechatName": "koi"
        },
        {
          "name": "章魚飯.",
          "registeredName": "章魚飯.",
          "wechatName": "章魚飯."
        },
        {
          "name": "冷酷小猫",
          "registeredName": "冷酷小猫",
          "wechatName": "猫博"
        }
      ]
    },
    {
      "label": "上海",
      "note": "上海市",
      "lng": 121.4737,
      "lat": 31.2304,
      "chinaNames": [
        "上海市"
      ],
      "count": 4,
      "students": [
        {
          "name": "王梓如",
          "registeredName": "王梓如",
          "wechatName": "帧安"
        },
        {
          "name": "leah",
          "registeredName": "leah",
          "wechatName": "状况外🌀"
        },
        {
          "name": "Allonsy",
          "registeredName": "Allonsy",
          "wechatName": "Allons--y"
        },
        {
          "name": "Wheeler",
          "registeredName": "Wheeler",
          "wechatName": "Seacoconut"
        }
      ]
    },
    {
      "label": "杭州",
      "note": "杭州市",
      "lng": 120.1551,
      "lat": 30.2741,
      "chinaNames": [
        "杭州市"
      ],
      "count": 3,
      "students": [
        {
          "name": "影洲",
          "registeredName": "影洲",
          "wechatName": "雅正"
        },
        {
          "name": "五谷粥",
          "registeredName": "五谷粥",
          "wechatName": "五谷粥"
        },
        {
          "name": "华宇昊",
          "registeredName": "华宇昊",
          "wechatName": "ɔɪ化十子."
        }
      ]
    },
    {
      "label": "南京",
      "note": "南京市",
      "lng": 118.7969,
      "lat": 32.0603,
      "chinaNames": [
        "南京市"
      ],
      "count": 3,
      "students": [
        {
          "name": "李仲实",
          "registeredName": "李仲实",
          "wechatName": "塞雷SL"
        },
        {
          "name": "Yesoo",
          "registeredName": "Yesoo",
          "wechatName": "Malpaca"
        },
        {
          "name": "大符",
          "registeredName": "大符",
          "wechatName": "红茶椰"
        }
      ]
    },
    {
      "label": "悉尼",
      "note": "海外都会区边界",
      "lng": 151.2093,
      "lat": -33.8688,
      "overseasId": "sydney",
      "count": 3,
      "students": [
        {
          "name": "sam",
          "registeredName": "sam",
          "wechatName": "lwt"
        },
        {
          "name": "蟑螂",
          "registeredName": "蟑螂",
          "wechatName": "ㅤ蟑螂"
        },
        {
          "name": "Sophie",
          "registeredName": "Sophie",
          "wechatName": "淼"
        }
      ]
    },
    {
      "label": "北京",
      "note": "北京市",
      "lng": 116.4074,
      "lat": 39.9042,
      "chinaNames": [
        "北京市"
      ],
      "count": 2,
      "students": [
        {
          "name": "阿良",
          "registeredName": "阿良",
          "wechatName": "Anthony Li"
        },
        {
          "name": "Robin",
          "registeredName": "Robin",
          "wechatName": "Robin"
        }
      ]
    },
    {
      "label": "巴黎",
      "note": "海外市级行政边界",
      "lng": 2.3522,
      "lat": 48.8566,
      "overseasId": "paris",
      "count": 1,
      "students": [
        {
          "name": "张嘉文",
          "registeredName": "张嘉文",
          "wechatName": "我说，要有光"
        }
      ]
    },
    {
      "label": "波士顿",
      "note": "海外市级行政边界",
      "lng": -71.0589,
      "lat": 42.3601,
      "overseasId": "boston",
      "count": 1,
      "students": [
        {
          "name": "Tracy",
          "registeredName": "Tracy",
          "wechatName": "Traaa"
        }
      ]
    },
    {
      "label": "成都",
      "note": "成都市",
      "lng": 104.065735,
      "lat": 30.659462,
      "chinaNames": [
        "成都市"
      ],
      "count": 1,
      "students": [
        {
          "name": "Time flies.",
          "registeredName": "Time flies.",
          "wechatName": "Time flies."
        }
      ]
    },
    {
      "label": "重庆",
      "note": "重庆市",
      "lng": 106.504962,
      "lat": 29.533155,
      "chinaNames": [
        "重庆市"
      ],
      "count": 1,
      "students": [
        {
          "name": "梁波",
          "registeredName": "梁波",
          "wechatName": "粉色钉子头"
        }
      ]
    },
    {
      "label": "大连",
      "note": "大连市",
      "lng": 121.6147,
      "lat": 38.914,
      "chinaNames": [
        "大连市"
      ],
      "count": 1,
      "students": [
        {
          "name": "Wincent",
          "registeredName": "Wincent",
          "wechatName": "Wincent"
        }
      ]
    },
    {
      "label": "福州",
      "note": "福州市",
      "lng": 119.306239,
      "lat": 26.075302,
      "chinaNames": [
        "福州市"
      ],
      "count": 1,
      "students": [
        {
          "name": "Levia",
          "registeredName": "Levia",
          "wechatName": "Levia.Qi"
        }
      ]
    },
    {
      "label": "广西柳州",
      "note": "柳州市",
      "lng": 109.4281,
      "lat": 24.3264,
      "chinaNames": [
        "柳州市"
      ],
      "count": 1,
      "students": [
        {
          "name": "多林",
          "registeredName": "多林",
          "wechatName": "Artist多林"
        }
      ]
    },
    {
      "label": "广州",
      "note": "广州市",
      "lng": 113.280637,
      "lat": 23.125178,
      "chinaNames": [
        "广州市"
      ],
      "count": 1,
      "students": [
        {
          "name": "康康",
          "registeredName": "康康",
          "wechatName": "sloth"
        }
      ]
    },
    {
      "label": "衡阳",
      "note": "衡阳市",
      "lng": 112.5719,
      "lat": 26.8932,
      "chinaNames": [
        "衡阳市"
      ],
      "count": 1,
      "students": [
        {
          "name": "Spaceman",
          "registeredName": "Spaceman",
          "wechatName": "十日十韦"
        }
      ]
    },
    {
      "label": "淮安",
      "note": "淮安市",
      "lng": 119.021265,
      "lat": 33.597506,
      "chinaNames": [
        "淮安市"
      ],
      "count": 1,
      "students": [
        {
          "name": "杜博伦",
          "registeredName": "杜博伦",
          "wechatName": "有志青年"
        }
      ]
    },
    {
      "label": "昆明",
      "note": "昆明市",
      "lng": 102.712251,
      "lat": 25.040609,
      "chinaNames": [
        "昆明市"
      ],
      "count": 1,
      "students": [
        {
          "name": "酌锦",
          "registeredName": "酌锦",
          "wechatName": "酌锦"
        }
      ]
    },
    {
      "label": "秦皇岛",
      "note": "秦皇岛市",
      "lng": 119.5996,
      "lat": 39.9354,
      "chinaNames": [
        "秦皇岛市"
      ],
      "count": 1,
      "students": [
        {
          "name": "小羊",
          "registeredName": "小羊",
          "wechatName": "FY"
        }
      ]
    },
    {
      "label": "青岛",
      "note": "青岛市",
      "lng": 120.355173,
      "lat": 36.082982,
      "chinaNames": [
        "青岛市"
      ],
      "count": 1,
      "students": [
        {
          "name": "郑杨守都",
          "registeredName": "郑杨守都",
          "wechatName": "Luxorion"
        }
      ]
    },
    {
      "label": "厦门",
      "note": "厦门市",
      "lng": 118.0894,
      "lat": 24.4798,
      "chinaNames": [
        "厦门市"
      ],
      "count": 1,
      "students": [
        {
          "name": "moby豪",
          "registeredName": "moby豪",
          "wechatName": "MoBy豪"
        }
      ]
    },
    {
      "label": "深圳",
      "note": "深圳市",
      "lng": 114.085947,
      "lat": 22.547,
      "chinaNames": [
        "深圳市"
      ],
      "count": 1,
      "students": [
        {
          "name": "张淇博",
          "registeredName": "张淇博",
          "wechatName": "keve"
        }
      ]
    },
    {
      "label": "石家庄市",
      "note": "石家庄市",
      "lng": 114.5149,
      "lat": 38.0428,
      "chinaNames": [
        "石家庄市"
      ],
      "count": 1,
      "students": [
        {
          "name": "穆昱伟",
          "registeredName": "穆昱伟",
          "wechatName": "Algea"
        }
      ]
    },
    {
      "label": "苏州",
      "note": "苏州市",
      "lng": 120.5853,
      "lat": 31.2989,
      "chinaNames": [
        "苏州市"
      ],
      "count": 1,
      "students": [
        {
          "name": "三十六",
          "registeredName": "三十六",
          "wechatName": "三十六"
        }
      ]
    },
    {
      "label": "天津",
      "note": "天津市",
      "lng": 117.2009,
      "lat": 39.0842,
      "chinaNames": [
        "天津市"
      ],
      "count": 1,
      "students": [
        {
          "name": "朱天宇",
          "registeredName": "朱天宇",
          "wechatName": "思想先落地"
        }
      ]
    },
    {
      "label": "西安",
      "note": "西安市",
      "lng": 108.9398,
      "lat": 34.3416,
      "chinaNames": [
        "西安市"
      ],
      "count": 1,
      "students": [
        {
          "name": "杜祖鹏",
          "registeredName": "杜祖鹏",
          "wechatName": "Sunflower"
        }
      ]
    },
    {
      "label": "香港",
      "note": "海外行政边界",
      "lng": 114.1694,
      "lat": 22.3193,
      "overseasId": "hong-kong",
      "count": 1,
      "students": [
        {
          "name": "浩瀚夜空",
          "registeredName": "浩瀚夜空",
          "wechatName": "浩瀚夜空"
        }
      ]
    },
    {
      "label": "新加坡",
      "note": "海外市级行政边界",
      "lng": 103.8198,
      "lat": 1.3521,
      "overseasId": "singapore",
      "count": 1,
      "students": [
        {
          "name": "愚任杰",
          "registeredName": "愚任杰",
          "wechatName": "愚任杰"
        }
      ]
    },
    {
      "label": "信阳市",
      "note": "信阳市",
      "lng": 114.0913,
      "lat": 32.147,
      "chinaNames": [
        "信阳市"
      ],
      "count": 1,
      "students": [
        {
          "name": "徐亚博",
          "registeredName": "徐亚博",
          "wechatName": "火火"
        }
      ]
    },
    {
      "label": "烟台",
      "note": "烟台市",
      "lng": 121.391382,
      "lat": 37.539297,
      "chinaNames": [
        "烟台市"
      ],
      "count": 1,
      "students": [
        {
          "name": "张校菘",
          "registeredName": "张校菘",
          "wechatName": "向箔"
        }
      ]
    },
    {
      "label": "淄博",
      "note": "淄博市",
      "lng": 118.047648,
      "lat": 36.814939,
      "chinaNames": [
        "淄博市"
      ],
      "count": 1,
      "students": [
        {
          "name": "Glory",
          "registeredName": "Glory",
          "wechatName": "Glory"
        }
      ]
    }
  ],
  "unrecordedStudents": [
    {
      "name": "雷雨",
      "registeredName": "雷雨",
      "wechatName": "雷雨同学"
    },
    {
      "name": "彭根辉",
      "registeredName": "彭根辉",
      "wechatName": "彭根辉"
    },
    {
      "name": "小橘",
      "registeredName": "小橘",
      "wechatName": "小橘"
    },
    {
      "name": "周晶🎐",
      "registeredName": "周晶🎐",
      "wechatName": "周晶🎐"
    },
    {
      "name": "Dorian",
      "registeredName": "Dorian",
      "wechatName": "Dorian"
    },
    {
      "name": "注意力",
      "registeredName": "注意力",
      "wechatName": "注意力"
    },
    {
      "name": "JM",
      "registeredName": "JM",
      "wechatName": "JM"
    },
    {
      "name": "Echo",
      "registeredName": "Echo",
      "wechatName": "Echo"
    },
    {
      "name": "Jaden",
      "registeredName": "Jaden",
      "wechatName": "Jaden@Jaden_riku"
    },
    {
      "name": "覔",
      "registeredName": "覔",
      "wechatName": "覔"
    },
    {
      "name": "Lihyu",
      "registeredName": "Lihyu",
      "wechatName": "Lihyu"
    },
    {
      "name": "仅此而已",
      "registeredName": "仅此而已",
      "wechatName": "仅此而已"
    },
    {
      "name": "月",
      "registeredName": "月",
      "wechatName": "月"
    },
    {
      "name": "Yuvi",
      "registeredName": "Yuvi",
      "wechatName": "Yuvi"
    },
    {
      "name": "Cameron",
      "registeredName": "Cameron",
      "wechatName": "Cameron"
    },
    {
      "name": "Gambetto",
      "registeredName": "Gambetto",
      "wechatName": "Gambetto"
    },
    {
      "name": "半夏",
      "registeredName": "半夏",
      "wechatName": "半夏"
    },
    {
      "name": "Musol",
      "registeredName": "Musol",
      "wechatName": "桜のMusol"
    },
    {
      "name": "vleffrey",
      "registeredName": "vleffrey",
      "wechatName": "vleffrey"
    },
    {
      "name": "郁郁葱葱",
      "registeredName": "郁郁葱葱",
      "wechatName": "郁郁葱葱"
    },
    {
      "name": "乘璟",
      "registeredName": "乘璟",
      "wechatName": "乘璟"
    }
  ],
  "provinceOnlyStudents": [
    {
      "name": "淼淼",
      "registeredName": "淼淼",
      "wechatName": "邱淼淼",
      "city": "福建"
    },
    {
      "name": "张锦阳",
      "registeredName": "张锦阳",
      "wechatName": "Orion 常青de绵阳",
      "city": "江苏"
    },
    {
      "name": "舒奕萌",
      "registeredName": "舒奕萌",
      "wechatName": "🐟",
      "city": "山东"
    },
    {
      "name": "Bryan",
      "registeredName": "Bryan",
      "wechatName": "Ryan",
      "city": "江苏"
    }
  ],
  "unmappedStudents": [],
  "excludedDualCityStudents": [
    {
      "name": "janus",
      "registeredName": "janus",
      "wechatName": "陆小果",
      "city": "长春 / 济南"
    },
    {
      "name": "季佳杰",
      "registeredName": "季佳杰",
      "wechatName": "季",
      "city": "常州/北京"
    },
    {
      "name": "姜永健",
      "registeredName": "姜永健",
      "wechatName": "。",
      "city": "泉州 / 厦门"
    }
  ]
}
